time,.header.seq,.header.stamp.secs,.header.stamp.nsecs,.header.frame_id,.status.status,.status.service,.latitude,.longitude,.altitude,.position_covariance,.position_covariance_type
2024/10/19/10:28:58.222589,14924,1729301338,125188128,gps,2,0,37.238844799999995,126.7729184,29.697,"(0.00019600000000000002, 0.0, 0.0, 0.0, 0.00019600000000000002, 0.0, 0.0, 0.0, 0.00032399999999999996)",2
2024/10/19/10:28:58.333987,14925,1729301338,250188107,gps,2,0,37.238844799999995,126.7729184,29.698,"(0.00019600000000000002, 0.0, 0.0, 0.0, 0.00019600000000000002, 0.0, 0.0, 0.0, 0.00032399999999999996)",2
2024/10/19/10:28:58.469276,14926,1729301338,375188086,gps,2,0,37.238844799999995,126.7729184,29.696,"(0.00019600000000000002, 0.0, 0.0, 0.0, 0.00019600000000000002, 0.0, 0.0, 0.0, 0.00032399999999999996)",2
2024/10/19/10:28:58.589046,14927,1729301338,500188065,gps,2,0,37.238844799999995,126.7729184,29.697,"(0.00019600000000000002, 0.0, 0.0, 0.0, 0.00019600000000000002, 0.0, 0.0, 0.0, 0.00032399999999999996)",2
2024/10/19/10:28:58.751954,14928,1729301338,625188044,gps,2,0,37.238844799999995,126.7729184,29.698,"(0.00019600000000000002, 0.0, 0.0, 0.0, 0.00019600000000000002, 0.0, 0.0, 0.0, 0.00032399999999999996)",2
2024/10/19/10:28:58.964011,14929,1729301338,875188002,gps,2,0,37.238844799999995,126.7729184,29.697,"(0.00019600000000000002, 0.0, 0.0, 0.0, 0.00019600000000000002, 0.0, 0.0, 0.0, 0.00044100000000000004)",2
2024/10/19/10:28:59.096092,14930,1729301339,187981,gps,2,0,37.238844799999995,126.7729184,29.698,"(0.00019600000000000002, 0.0, 0.0, 0.0, 0.00019600000000000002, 0.0, 0.0, 0.0, 0.0004)",2
2024/10/19/10:28:59.212363,14931,1729301339,125187960,gps,2,0,37.238844799999995,126.7729184,29.697,"(0.00019600000000000002, 0.0, 0.0, 0.0, 0.00019600000000000002, 0.0, 0.0, 0.0, 0.000361)",2
2024/10/19/10:28:59.341444,14932,1729301339,250187939,gps,2,0,37.238844799999995,126.7729184,29.696,"(0.00019600000000000002, 0.0, 0.0, 0.0, 0.00019600000000000002, 0.0, 0.0, 0.0, 0.000361)",2
2024/10/19/10:28:59.470514,14933,1729301339,375187918,gps,2,0,37.238844799999995,126.7729184,29.696,"(0.00019600000000000002, 0.0, 0.0, 0.0, 0.00019600000000000002, 0.0, 0.0, 0.0, 0.00032399999999999996)",2
2024/10/19/10:28:59.591360,14934,1729301339,500187897,gps,2,0,37.238844799999995,126.7729184,29.696,"(0.00019600000000000002, 0.0, 0.0, 0.0, 0.00019600000000000002, 0.0, 0.0, 0.0, 0.00032399999999999996)",2
2024/10/19/10:28:59.714282,14935,1729301339,625187876,gps,2,0,37.238844799999995,126.7729184,29.697,"(0.00019600000000000002, 0.0, 0.0, 0.0, 0.00019600000000000002, 0.0, 0.0, 0.0, 0.00032399999999999996)",2
2024/10/19/10:28:59.837934,14936,1729301339,750187854,gps,2,0,37.238844799999995,126.7729184,29.698,"(0.00019600000000000002, 0.0, 0.0, 0.0, 0.00019600000000000002, 0.0, 0.0, 0.0, 0.00032399999999999996)",2
2024/10/19/10:28:59.962095,14937,1729301339,875187833,gps,2,0,37.238844799999995,126.7729184,29.699,"(0.00019600000000000002, 0.0, 0.0, 0.0, 0.00019600000000000002, 0.0, 0.0, 0.0, 0.00032399999999999996)",2
2024/10/19/10:29:00.091170,14938,1729301340,187812,gps,2,0,37.238844799999995,126.7729184,29.698,"(0.00019600000000000002, 0.0, 0.0, 0.0, 0.00019600000000000002, 0.0, 0.0, 0.0, 0.00032399999999999996)",2
2024/10/19/10:29:00.214762,14939,1729301340,125187791,gps,2,0,37.238844799999995,126.77291849999999,29.701,"(0.00019600000000000002, 0.0, 0.0, 0.0, 0.00019600000000000002, 0.0, 0.0, 0.0, 0.00032399999999999996)",2
2024/10/19/10:29:00.349126,14940,1729301340,250187770,gps,2,0,37.2388449,126.77291849999999,29.708000000000002,"(0.00019600000000000002, 0.0, 0.0, 0.0, 0.00019600000000000002, 0.0, 0.0, 0.0, 0.00032399999999999996)",2
2024/10/19/10:29:00.470514,14941,1729301340,375187749,gps,2,0,37.2388449,126.77291849999999,29.709,"(0.00019600000000000002, 0.0, 0.0, 0.0, 0.00019600000000000002, 0.0, 0.0, 0.0, 0.00032399999999999996)",2
2024/10/19/10:29:00.588507,14942,1729301340,500187728,gps,2,0,37.2388451,126.7729186,29.708000000000002,"(0.00019600000000000002, 0.0, 0.0, 0.0, 0.00019600000000000002, 0.0, 0.0, 0.0, 0.00032399999999999996)",2
2024/10/19/10:29:00.748671,14943,1729301340,625187707,gps,2,0,37.2388453,126.7729188,29.707,"(0.00019600000000000002, 0.0, 0.0, 0.0, 0.00019600000000000002, 0.0, 0.0, 0.0, 0.00032399999999999996)",2
2024/10/19/10:29:00.960195,14944,1729301340,875187665,gps,2,0,37.238846099999996,126.7729193,29.697,"(0.00019600000000000002, 0.0, 0.0, 0.0, 0.00019600000000000002, 0.0, 0.0, 0.0, 0.00044100000000000004)",2
2024/10/19/10:29:01.096016,14945,1729301341,187644,gps,2,0,37.238846599999995,126.7729196,29.694,"(0.00019600000000000002, 0.0, 0.0, 0.0, 0.00019600000000000002, 0.0, 0.0, 0.0, 0.0004)",2
2024/10/19/10:29:01.215038,14946,1729301341,125187623,gps,2,0,37.238847299999996,126.77292,29.696,"(0.00019600000000000002, 0.0, 0.0, 0.0, 0.00019600000000000002, 0.0, 0.0, 0.0, 0.000361)",2
2024/10/19/10:29:01.346172,14947,1729301341,250187602,gps,2,0,37.238848,126.77292039999999,29.699,"(0.00019600000000000002, 0.0, 0.0, 0.0, 0.00019600000000000002, 0.0, 0.0, 0.0, 0.000361)",2
2024/10/19/10:29:01.466018,14948,1729301341,375187581,gps,2,0,37.2388488,126.7729208,29.7,"(0.00019600000000000002, 0.0, 0.0, 0.0, 0.00019600000000000002, 0.0, 0.0, 0.0, 0.00032399999999999996)",2
2024/10/19/10:29:01.585014,14949,1729301341,500187560,gps,2,0,37.2388496,126.77292109999999,29.703,"(0.00019600000000000002, 0.0, 0.0, 0.0, 0.00019600000000000002, 0.0, 0.0, 0.0, 0.00032399999999999996)",2
2024/10/19/10:29:01.710748,14950,1729301341,625187538,gps,2,0,37.2388505,126.7729215,29.702,"(0.00019600000000000002, 0.0, 0.0, 0.0, 0.00019600000000000002, 0.0, 0.0, 0.0, 0.00032399999999999996)",2
2024/10/19/10:29:01.835462,14951,1729301341,750187517,gps,2,0,37.238851499999996,126.7729219,29.703,"(0.00019600000000000002, 0.0, 0.0, 0.0, 0.00019600000000000002, 0.0, 0.0, 0.0, 0.00032399999999999996)",2
2024/10/19/10:29:01.952920,14952,1729301341,875187496,gps,2,0,37.2388524,126.77292229999999,29.704,"(0.00019600000000000002, 0.0, 0.0, 0.0, 0.00019600000000000002, 0.0, 0.0, 0.0, 0.000361)",2
2024/10/19/10:29:02.089532,14953,1729301342,187475,gps,2,0,37.238853399999996,126.7729227,29.706,"(0.00019600000000000002, 0.0, 0.0, 0.0, 0.00019600000000000002, 0.0, 0.0, 0.0, 0.000361)",2
2024/10/19/10:29:02.213274,14954,1729301342,125187454,gps,2,0,37.2388544,126.7729231,29.707,"(0.00019600000000000002, 0.0, 0.0, 0.0, 0.00019600000000000002, 0.0, 0.0, 0.0, 0.000361)",2
2024/10/19/10:29:02.337717,14955,1729301342,250187433,gps,2,0,37.2388554,126.77292329999999,29.705000000000002,"(0.00019600000000000002, 0.0, 0.0, 0.0, 0.00019600000000000002, 0.0, 0.0, 0.0, 0.000361)",2
2024/10/19/10:29:02.465924,14956,1729301342,375187412,gps,2,0,37.238856399999996,126.7729236,29.706,"(0.00019600000000000002, 0.0, 0.0, 0.0, 0.00019600000000000002, 0.0, 0.0, 0.0, 0.000361)",2
2024/10/19/10:29:02.587073,14957,1729301342,500187391,gps,2,0,37.2388574,126.7729239,29.705000000000002,"(0.00019600000000000002, 0.0, 0.0, 0.0, 0.00019600000000000002, 0.0, 0.0, 0.0, 0.000361)",2
2024/10/19/10:29:02.746114,14958,1729301342,625187370,gps,2,0,37.2388585,126.77292419999999,29.707,"(0.00019600000000000002, 0.0, 0.0, 0.0, 0.00019600000000000002, 0.0, 0.0, 0.0, 0.000361)",2
2024/10/19/10:29:02.828828,14959,1729301342,750187349,gps,2,0,37.2388597,126.77292449999999,29.704,"(0.00019600000000000002, 0.0, 0.0, 0.0, 0.00019600000000000002, 0.0, 0.0, 0.0, 0.000361)",2
2024/10/19/10:29:02.959976,14960,1729301342,875187328,gps,2,0,37.238861,126.7729248,29.707,"(0.00019600000000000002, 0.0, 0.0, 0.0, 0.00019600000000000002, 0.0, 0.0, 0.0, 0.000361)",2
2024/10/19/10:29:03.092965,14961,1729301343,187307,gps,2,0,37.238862399999995,126.77292519999999,29.706,"(0.00019600000000000002, 0.0, 0.0, 0.0, 0.00019600000000000002, 0.0, 0.0, 0.0, 0.000361)",2
2024/10/19/10:29:03.211702,14962,1729301343,125187286,gps,2,0,37.2388638,126.77292569999999,29.712,"(0.00019600000000000002, 0.0, 0.0, 0.0, 0.00019600000000000002, 0.0, 0.0, 0.0, 0.000361)",2
2024/10/19/10:29:03.340810,14963,1729301343,250187265,gps,2,0,37.2388654,126.7729262,29.713,"(0.00019600000000000002, 0.0, 0.0, 0.0, 0.00019600000000000002, 0.0, 0.0, 0.0, 0.000361)",2
2024/10/19/10:29:03.468634,14964,1729301343,375187243,gps,2,0,37.2388671,126.7729267,29.72,"(0.00019600000000000002, 0.0, 0.0, 0.0, 0.00019600000000000002, 0.0, 0.0, 0.0, 0.000361)",2
2024/10/19/10:29:03.585485,14965,1729301343,500187222,gps,2,0,37.2388689,126.77292729999999,29.721,"(0.00019600000000000002, 0.0, 0.0, 0.0, 0.00019600000000000002, 0.0, 0.0, 0.0, 0.000361)",2
2024/10/19/10:29:03.703314,14966,1729301343,625187201,gps,2,0,37.2388708,126.7729279,29.72,"(0.00019600000000000002, 0.0, 0.0, 0.0, 0.00019600000000000002, 0.0, 0.0, 0.0, 0.000361)",2
2024/10/19/10:29:03.835485,14967,1729301343,750187180,gps,2,0,37.238872799999996,126.77292849999999,29.725,"(0.00019600000000000002, 0.0, 0.0, 0.0, 0.00019600000000000002, 0.0, 0.0, 0.0, 0.000361)",2
2024/10/19/10:29:03.960073,14968,1729301343,875187159,gps,2,0,37.2388748,126.77292899999999,29.72,"(0.00019600000000000002, 0.0, 0.0, 0.0, 0.00019600000000000002, 0.0, 0.0, 0.0, 0.000361)",2
2024/10/19/10:29:04.099905,14969,1729301344,187138,gps,2,0,37.2388769,126.77292969999999,29.718,"(0.00019600000000000002, 0.0, 0.0, 0.0, 0.00019600000000000002, 0.0, 0.0, 0.0, 0.00032399999999999996)",2
2024/10/19/10:29:04.228182,14970,1729301344,125187117,gps,2,0,37.238878899999996,126.77293019999999,29.716,"(0.00019600000000000002, 0.0, 0.0, 0.0, 0.00019600000000000002, 0.0, 0.0, 0.0, 0.00032399999999999996)",2
2024/10/19/10:29:04.336560,14971,1729301344,250187096,gps,2,0,37.2388809,126.772931,29.718,"(0.00019600000000000002, 0.0, 0.0, 0.0, 0.00019600000000000002, 0.0, 0.0, 0.0, 0.00032399999999999996)",2
2024/10/19/10:29:04.465003,14972,1729301344,375187074,gps,2,0,37.2388829,126.77293159999999,29.721,"(0.00019600000000000002, 0.0, 0.0, 0.0, 0.00019600000000000002, 0.0, 0.0, 0.0, 0.00032399999999999996)",2
2024/10/19/10:29:04.579652,14973,1729301344,500187053,gps,2,0,37.2388848,126.7729323,29.72,"(0.00019600000000000002, 0.0, 0.0, 0.0, 0.00019600000000000002, 0.0, 0.0, 0.0, 0.00032399999999999996)",2
2024/10/19/10:29:04.746898,14974,1729301344,625187032,gps,2,0,37.238886699999995,126.77293309999999,29.722,"(0.00019600000000000002, 0.0, 0.0, 0.0, 0.00019600000000000002, 0.0, 0.0, 0.0, 0.000361)",2
2024/10/19/10:29:04.959221,14975,1729301344,875186990,gps,2,0,37.238890399999995,126.7729347,29.721,"(0.00019600000000000002, 0.0, 0.0, 0.0, 0.00019600000000000002, 0.0, 0.0, 0.0, 0.00048399999999999995)",2
2024/10/19/10:29:05.091388,14976,1729301345,186969,gps,2,0,37.2388921,126.7729356,29.721,"(0.00019600000000000002, 0.0, 0.0, 0.0, 0.00019600000000000002, 0.0, 0.0, 0.0, 0.0004)",2
2024/10/19/10:29:05.210487,14977,1729301345,125186947,gps,2,0,37.2388938,126.77293639999999,29.726,"(0.00019600000000000002, 0.0, 0.0, 0.0, 0.00019600000000000002, 0.0, 0.0, 0.0, 0.000361)",2
2024/10/19/10:29:05.344237,14978,1729301345,250186926,gps,2,0,37.2388954,126.77293739999999,29.734,"(0.00019600000000000002, 0.0, 0.0, 0.0, 0.00019600000000000002, 0.0, 0.0, 0.0, 0.000361)",2
2024/10/19/10:29:05.463957,14979,1729301345,375186905,gps,2,0,37.238897,126.7729384,29.736,"(0.00019600000000000002, 0.0, 0.0, 0.0, 0.00019600000000000002, 0.0, 0.0, 0.0, 0.00032399999999999996)",2
2024/10/19/10:29:05.587060,14980,1729301345,500186884,gps,2,0,37.2388986,126.77293949999999,29.737000000000002,"(0.00019600000000000002, 0.0, 0.0, 0.0, 0.00019600000000000002, 0.0, 0.0, 0.0, 0.00032399999999999996)",2
2024/10/19/10:29:05.710112,14981,1729301345,625186862,gps,2,0,37.238900099999995,126.77294049999999,29.738,"(0.00019600000000000002, 0.0, 0.0, 0.0, 0.00019600000000000002, 0.0, 0.0, 0.0, 0.00032399999999999996)",2
2024/10/19/10:29:05.833984,14982,1729301345,750186841,gps,2,0,37.2389015,126.77294149999999,29.742,"(0.00019600000000000002, 0.0, 0.0, 0.0, 0.00019600000000000002, 0.0, 0.0, 0.0, 0.00032399999999999996)",2
2024/10/19/10:29:05.957816,14983,1729301345,875186820,gps,2,0,37.2389029,126.7729426,29.740000000000002,"(0.00019600000000000002, 0.0, 0.0, 0.0, 0.00019600000000000002, 0.0, 0.0, 0.0, 0.00032399999999999996)",2
2024/10/19/10:29:06.100336,14984,1729301346,186798,gps,2,0,37.2389043,126.7729438,29.743000000000002,"(0.00019600000000000002, 0.0, 0.0, 0.0, 0.00019600000000000002, 0.0, 0.0, 0.0, 0.00032399999999999996)",2
2024/10/19/10:29:06.216461,14985,1729301346,125186777,gps,2,0,37.238905599999995,126.7729449,29.744,"(0.00019600000000000002, 0.0, 0.0, 0.0, 0.00019600000000000002, 0.0, 0.0, 0.0, 0.00032399999999999996)",2
2024/10/19/10:29:06.336902,14986,1729301346,250186756,gps,2,0,37.238907,126.7729459,29.744,"(0.00019600000000000002, 0.0, 0.0, 0.0, 0.00019600000000000002, 0.0, 0.0, 0.0, 0.00032399999999999996)",2
2024/10/19/10:29:06.460690,14987,1729301346,375186734,gps,2,0,37.2389083,126.7729469,29.75,"(0.00019600000000000002, 0.0, 0.0, 0.0, 0.00019600000000000002, 0.0, 0.0, 0.0, 0.00032399999999999996)",2
2024/10/19/10:29:06.583809,14988,1729301346,500186713,gps,2,0,37.2389097,126.7729478,29.751,"(0.00019600000000000002, 0.0, 0.0, 0.0, 0.00019600000000000002, 0.0, 0.0, 0.0, 0.00032399999999999996)",2
2024/10/19/10:29:06.739584,14989,1729301346,625186692,gps,2,0,37.238911,126.7729487,29.758,"(0.00019600000000000002, 0.0, 0.0, 0.0, 0.00019600000000000002, 0.0, 0.0, 0.0, 0.000361)",2
2024/10/19/10:29:06.831439,14990,1729301346,750186670,gps,2,0,37.238912299999996,126.77294959999999,29.756,"(0.00019600000000000002, 0.0, 0.0, 0.0, 0.00019600000000000002, 0.0, 0.0, 0.0, 0.000361)",2
2024/10/19/10:29:06.955220,14991,1729301346,875186649,gps,2,0,37.2389136,126.7729504,29.754,"(0.00019600000000000002, 0.0, 0.0, 0.0, 0.00019600000000000002, 0.0, 0.0, 0.0, 0.000361)",2
2024/10/19/10:29:07.086119,14992,1729301347,186628,gps,2,0,37.238914799999996,126.7729512,29.757,"(0.00019600000000000002, 0.0, 0.0, 0.0, 0.00019600000000000002, 0.0, 0.0, 0.0, 0.000361)",2
2024/10/19/10:29:07.210961,14993,1729301347,125186607,gps,2,0,37.238915999999996,126.7729521,29.772000000000002,"(0.00019600000000000002, 0.0, 0.0, 0.0, 0.00019600000000000002, 0.0, 0.0, 0.0, 0.00048399999999999995)",2
2024/10/19/10:29:07.326177,14994,1729301347,250186585,gps,2,0,37.238917199999996,126.77295289999999,29.787,"(0.00019600000000000002, 0.0, 0.0, 0.0, 0.00019600000000000002, 0.0, 0.0, 0.0, 0.000576)",2
2024/10/19/10:29:07.455617,14995,1729301347,375186564,gps,2,0,37.238918399999996,126.77295369999999,29.798000000000002,"(0.00019600000000000002, 0.0, 0.0, 0.0, 0.00019600000000000002, 0.0, 0.0, 0.0, 0.0006250000000000001)",2
2024/10/19/10:29:07.582109,14996,1729301347,500186543,gps,2,0,37.238919599999996,126.77295459999999,29.804000000000002,"(0.00019600000000000002, 0.0, 0.0, 0.0, 0.00019600000000000002, 0.0, 0.0, 0.0, 0.000676)",2
2024/10/19/10:29:07.709441,14997,1729301347,625186521,gps,2,0,37.2389207,126.77295529999999,29.809,"(0.00019600000000000002, 0.0, 0.0, 0.0, 0.00019600000000000002, 0.0, 0.0, 0.0, 0.000676)",2
2024/10/19/10:29:07.836340,14998,1729301347,750186500,gps,2,0,37.2389218,126.772956,29.807000000000002,"(0.00019600000000000002, 0.0, 0.0, 0.0, 0.00019600000000000002, 0.0, 0.0, 0.0, 0.000676)",2
2024/10/19/10:29:07.958490,14999,1729301347,875186479,gps,2,0,37.2389229,126.7729567,29.809,"(0.00019600000000000002, 0.0, 0.0, 0.0, 0.00019600000000000002, 0.0, 0.0, 0.0, 0.0006250000000000001)",2
2024/10/19/10:29:08.096727,15000,1729301348,186457,gps,2,0,37.2389241,126.77295749999999,29.807000000000002,"(0.00019600000000000002, 0.0, 0.0, 0.0, 0.00019600000000000002, 0.0, 0.0, 0.0, 0.0006250000000000001)",2
2024/10/19/10:29:08.202497,15001,1729301348,125186436,gps,2,0,37.2389252,126.7729581,29.808,"(0.00019600000000000002, 0.0, 0.0, 0.0, 0.00019600000000000002, 0.0, 0.0, 0.0, 0.0006250000000000001)",2
2024/10/19/10:29:08.336418,15002,1729301348,250186415,gps,2,0,37.238926299999996,126.77295869999999,29.819,"(0.00019600000000000002, 0.0, 0.0, 0.0, 0.00019600000000000002, 0.0, 0.0, 0.0, 0.000676)",2
2024/10/19/10:29:08.461400,15003,1729301348,375186394,gps,2,0,37.2389273,126.77295939999999,29.831,"(0.00019600000000000002, 0.0, 0.0, 0.0, 0.00019600000000000002, 0.0, 0.0, 0.0, 0.0006250000000000001)",2
2024/10/19/10:29:08.582231,15004,1729301348,500186372,gps,2,0,37.2389285,126.7729602,29.846,"(0.00019600000000000002, 0.0, 0.0, 0.0, 0.00019600000000000002, 0.0, 0.0, 0.0, 0.000529)",2
2024/10/19/10:29:08.743046,15005,1729301348,625186351,gps,2,0,37.2389296,126.772961,29.855,"(0.00019600000000000002, 0.0, 0.0, 0.0, 0.00019600000000000002, 0.0, 0.0, 0.0, 0.000529)",2
2024/10/19/10:29:08.830900,15006,1729301348,750186330,gps,2,0,37.2389309,126.77296179999999,29.856,"(0.00019600000000000002, 0.0, 0.0, 0.0, 0.00019600000000000002, 0.0, 0.0, 0.0, 0.00048399999999999995)",2
2024/10/19/10:29:08.955731,15007,1729301348,875186308,gps,2,0,37.2389322,126.7729626,29.859,"(0.00019600000000000002, 0.0, 0.0, 0.0, 0.00019600000000000002, 0.0, 0.0, 0.0, 0.00048399999999999995)",2
2024/10/19/10:29:09.082810,15008,1729301349,186287,gps,2,0,37.238933599999996,126.7729633,29.862000000000002,"(0.00019600000000000002, 0.0, 0.0, 0.0, 0.00019600000000000002, 0.0, 0.0, 0.0, 0.00048399999999999995)",2
2024/10/19/10:29:09.211883,15009,1729301349,125186266,gps,2,0,37.2389351,126.77296439999999,29.86,"(0.00019600000000000002, 0.0, 0.0, 0.0, 0.00019600000000000002, 0.0, 0.0, 0.0, 0.00048399999999999995)",2
2024/10/19/10:29:09.334274,15010,1729301349,250186245,gps,2,0,37.238936599999995,126.7729653,29.858,"(0.00019600000000000002, 0.0, 0.0, 0.0, 0.00019600000000000002, 0.0, 0.0, 0.0, 0.00048399999999999995)",2
2024/10/19/10:29:09.462803,15011,1729301349,375186223,gps,2,0,37.2389382,126.7729663,29.846,"(0.00019600000000000002, 0.0, 0.0, 0.0, 0.00019600000000000002, 0.0, 0.0, 0.0, 0.00048399999999999995)",2
2024/10/19/10:29:09.581336,15012,1729301349,500186202,gps,2,0,37.2389398,126.7729674,29.835,"(0.00019600000000000002, 0.0, 0.0, 0.0, 0.00019600000000000002, 0.0, 0.0, 0.0, 0.00048399999999999995)",2
2024/10/19/10:29:09.705518,15013,1729301349,625186181,gps,2,0,37.2389417,126.77296829999999,29.839000000000002,"(0.00019600000000000002, 0.0, 0.0, 0.0, 0.00019600000000000002, 0.0, 0.0, 0.0, 0.00048399999999999995)",2
2024/10/19/10:29:09.831261,15014,1729301349,750186160,gps,2,0,37.2389434,126.77296949999999,29.847,"(0.00019600000000000002, 0.0, 0.0, 0.0, 0.00019600000000000002, 0.0, 0.0, 0.0, 0.00044100000000000004)",2
2024/10/19/10:29:09.953274,15015,1729301349,875186138,gps,2,0,37.2389453,126.7729705,29.849,"(0.00019600000000000002, 0.0, 0.0, 0.0, 0.00019600000000000002, 0.0, 0.0, 0.0, 0.00044100000000000004)",2
2024/10/19/10:29:10.093893,15016,1729301350,186117,gps,2,0,37.2389471,126.7729717,29.86,"(0.00019600000000000002, 0.0, 0.0, 0.0, 0.00019600000000000002, 0.0, 0.0, 0.0, 0.00044100000000000004)",2
2024/10/19/10:29:10.219244,15017,1729301350,125186096,gps,2,0,37.238949,126.7729729,29.856,"(0.00019600000000000002, 0.0, 0.0, 0.0, 0.00019600000000000002, 0.0, 0.0, 0.0, 0.00044100000000000004)",2
2024/10/19/10:29:10.331294,15018,1729301350,250186074,gps,2,0,37.2389508,126.7729741,29.861,"(0.00019600000000000002, 0.0, 0.0, 0.0, 0.00019600000000000002, 0.0, 0.0, 0.0, 0.00044100000000000004)",2
2024/10/19/10:29:10.458997,15019,1729301350,375186053,gps,2,0,37.2389526,126.7729753,29.861,"(0.00019600000000000002, 0.0, 0.0, 0.0, 0.00019600000000000002, 0.0, 0.0, 0.0, 0.0004)",2
2024/10/19/10:29:10.574071,15020,1729301350,500186032,gps,2,0,37.2389544,126.77297659999999,29.871000000000002,"(0.00019600000000000002, 0.0, 0.0, 0.0, 0.00019600000000000002, 0.0, 0.0, 0.0, 0.000676)",2
2024/10/19/10:29:10.733141,15021,1729301350,625186010,gps,2,0,37.238956099999996,126.77297779999999,29.889,"(0.00019600000000000002, 0.0, 0.0, 0.0, 0.00019600000000000002, 0.0, 0.0, 0.0, 0.0009609999999999999)",2
2024/10/19/10:29:10.828766,15022,1729301350,750185989,gps,2,0,37.2389578,126.7729791,29.919,"(0.00019600000000000002, 0.0, 0.0, 0.0, 0.00019600000000000002, 0.0, 0.0, 0.0, 0.0011560000000000001)",2
2024/10/19/10:29:10.949855,15023,1729301350,875185968,gps,2,0,37.2389595,126.7729803,29.933,"(0.00019600000000000002, 0.0, 0.0, 0.0, 0.00019600000000000002, 0.0, 0.0, 0.0, 0.0013689999999999998)",2
2024/10/19/10:29:11.083879,15024,1729301351,185946,gps,2,0,37.2389612,126.77298139999999,29.957,"(0.00019600000000000002, 0.0, 0.0, 0.0, 0.00019600000000000002, 0.0, 0.0, 0.0, 0.001521)",2
2024/10/19/10:29:11.219931,15025,1729301351,125185925,gps,2,0,37.238962799999996,126.77298259999999,29.96,"(0.00019600000000000002, 0.0, 0.0, 0.0, 0.00019600000000000002, 0.0, 0.0, 0.0, 0.0016810000000000002)",2
2024/10/19/10:29:11.336865,15026,1729301351,250185903,gps,2,0,37.2389645,126.7729837,29.979,"(0.000225, 0.0, 0.0, 0.0, 0.000225, 0.0, 0.0, 0.0, 0.0017640000000000002)",2
2024/10/19/10:29:11.461862,15027,1729301351,375185882,gps,2,0,37.2389661,126.77298499999999,29.999000000000002,"(0.00019600000000000002, 0.0, 0.0, 0.0, 0.00019600000000000002, 0.0, 0.0, 0.0, 0.001444)",2
2024/10/19/10:29:11.581311,15028,1729301351,500185860,gps,2,0,37.238967699999996,126.7729861,30.017,"(0.00019600000000000002, 0.0, 0.0, 0.0, 0.00019600000000000002, 0.0, 0.0, 0.0, 0.0011560000000000001)",2
2024/10/19/10:29:11.704874,15029,1729301351,625185839,gps,2,0,37.2389693,126.7729873,30.017,"(0.00019600000000000002, 0.0, 0.0, 0.0, 0.00019600000000000002, 0.0, 0.0, 0.0, 0.0010890000000000001)",2
2024/10/19/10:29:11.822354,15030,1729301351,750185818,gps,2,0,37.2389708,126.77298839999999,30.022000000000002,"(0.00019600000000000002, 0.0, 0.0, 0.0, 0.00019600000000000002, 0.0, 0.0, 0.0, 0.001024)",2
2024/10/19/10:29:11.953136,15031,1729301351,875185796,gps,2,0,37.238972499999996,126.7729894,30.016000000000002,"(0.00019600000000000002, 0.0, 0.0, 0.0, 0.00019600000000000002, 0.0, 0.0, 0.0, 0.0009609999999999999)",2
2024/10/19/10:29:12.092208,15032,1729301352,185775,gps,2,0,37.2389739,126.7729904,30.021,"(0.00019600000000000002, 0.0, 0.0, 0.0, 0.00019600000000000002, 0.0, 0.0, 0.0, 0.0009609999999999999)",2
2024/10/19/10:29:12.213832,15033,1729301352,125185753,gps,2,0,37.238975499999995,126.77299149999999,30.019000000000002,"(0.00019600000000000002, 0.0, 0.0, 0.0, 0.00019600000000000002, 0.0, 0.0, 0.0, 0.0009)",2
2024/10/19/10:29:12.333338,15034,1729301352,250185732,gps,2,0,37.238977,126.7729925,30.022000000000002,"(0.00019600000000000002, 0.0, 0.0, 0.0, 0.00019600000000000002, 0.0, 0.0, 0.0, 0.0009)",2
2024/10/19/10:29:12.463007,15035,1729301352,375185711,gps,2,0,37.238978599999996,126.77299359999999,30.023,"(0.00019600000000000002, 0.0, 0.0, 0.0, 0.00019600000000000002, 0.0, 0.0, 0.0, 0.0008410000000000001)",2
2024/10/19/10:29:12.581023,15036,1729301352,500185690,gps,2,0,37.2389801,126.7729947,30.021,"(0.00019600000000000002, 0.0, 0.0, 0.0, 0.00019600000000000002, 0.0, 0.0, 0.0, 0.0008410000000000001)",2
2024/10/19/10:29:12.727031,15037,1729301352,625185668,gps,2,0,37.238981599999995,126.7729957,30.014,"(0.00019600000000000002, 0.0, 0.0, 0.0, 0.00019600000000000002, 0.0, 0.0, 0.0, 0.0007840000000000001)",2
2024/10/19/10:29:12.830796,15038,1729301352,750185647,gps,2,0,37.2389832,126.77299679999999,30.022000000000002,"(0.00019600000000000002, 0.0, 0.0, 0.0, 0.00019600000000000002, 0.0, 0.0, 0.0, 0.0007840000000000001)",2
2024/10/19/10:29:12.953753,15039,1729301352,875185626,gps,2,0,37.238984699999996,126.7729978,30.026,"(0.00019600000000000002, 0.0, 0.0, 0.0, 0.00019600000000000002, 0.0, 0.0, 0.0, 0.0007289999999999999)",2
2024/10/19/10:29:13.084359,15040,1729301353,185604,gps,2,0,37.2389863,126.7729988,30.028000000000002,"(0.00019600000000000002, 0.0, 0.0, 0.0, 0.00019600000000000002, 0.0, 0.0, 0.0, 0.0009609999999999999)",2
2024/10/19/10:29:13.211345,15041,1729301353,125185583,gps,2,0,37.238987699999996,126.773,30.033,"(0.00019600000000000002, 0.0, 0.0, 0.0, 0.00019600000000000002, 0.0, 0.0, 0.0, 0.001024)",2
2024/10/19/10:29:13.331193,15042,1729301353,250185562,gps,2,0,37.2389893,126.773001,30.038,"(0.00019600000000000002, 0.0, 0.0, 0.0, 0.00019600000000000002, 0.0, 0.0, 0.0, 0.0011560000000000001)",2
2024/10/19/10:29:13.454540,15043,1729301353,375185541,gps,2,0,37.238990799999996,126.7730021,30.029,"(0.00019600000000000002, 0.0, 0.0, 0.0, 0.00019600000000000002, 0.0, 0.0, 0.0, 0.0011560000000000001)",2
2024/10/19/10:29:13.570184,15044,1729301353,500185519,gps,2,0,37.238992499999995,126.77300319999999,30.015,"(0.00019600000000000002, 0.0, 0.0, 0.0, 0.00019600000000000002, 0.0, 0.0, 0.0, 0.0010890000000000001)",2
2024/10/19/10:29:13.701181,15045,1729301353,625185498,gps,2,0,37.2389942,126.7730043,30.018,"(0.00019600000000000002, 0.0, 0.0, 0.0, 0.00019600000000000002, 0.0, 0.0, 0.0, 0.001024)",2
2024/10/19/10:29:13.826454,15046,1729301353,750185477,gps,2,0,37.2389959,126.77300539999999,30.017,"(0.00019600000000000002, 0.0, 0.0, 0.0, 0.00019600000000000002, 0.0, 0.0, 0.0, 0.001024)",2
2024/10/19/10:29:13.951394,15047,1729301353,875185455,gps,2,0,37.2389976,126.7730065,30.015,"(0.00019600000000000002, 0.0, 0.0, 0.0, 0.00019600000000000002, 0.0, 0.0, 0.0, 0.001024)",2
2024/10/19/10:29:14.083704,15048,1729301354,185434,gps,2,0,37.238999299999996,126.77300749999999,30.01,"(0.00019600000000000002, 0.0, 0.0, 0.0, 0.00019600000000000002, 0.0, 0.0, 0.0, 0.001024)",2
2024/10/19/10:29:14.206927,15049,1729301354,125185413,gps,2,0,37.239001099999996,126.77300849999999,30.004,"(0.00019600000000000002, 0.0, 0.0, 0.0, 0.00019600000000000002, 0.0, 0.0, 0.0, 0.001024)",2
2024/10/19/10:29:14.339731,15050,1729301354,250185392,gps,2,0,37.2390028,126.77300969999999,30.008,"(0.00019600000000000002, 0.0, 0.0, 0.0, 0.00019600000000000002, 0.0, 0.0, 0.0, 0.0010890000000000001)",2
2024/10/19/10:29:14.458315,15051,1729301354,375185370,gps,2,0,37.2390046,126.7730107,30.007,"(0.00019600000000000002, 0.0, 0.0, 0.0, 0.00019600000000000002, 0.0, 0.0, 0.0, 0.0008410000000000001)",2
2024/10/19/10:29:14.579940,15052,1729301354,500185349,gps,2,0,37.2390064,126.7730119,30.012,"(0.00019600000000000002, 0.0, 0.0, 0.0, 0.00019600000000000002, 0.0, 0.0, 0.0, 0.0007289999999999999)",2
2024/10/19/10:29:14.736793,15053,1729301354,625185328,gps,2,0,37.2390081,126.7730129,30.01,"(0.00019600000000000002, 0.0, 0.0, 0.0, 0.00019600000000000002, 0.0, 0.0, 0.0, 0.0007289999999999999)",2
2024/10/19/10:29:14.828853,15054,1729301354,750185307,gps,2,0,37.2390099,126.77301399999999,30.009,"(0.00019600000000000002, 0.0, 0.0, 0.0, 0.00019600000000000002, 0.0, 0.0, 0.0, 0.000676)",2
2024/10/19/10:29:14.952559,15055,1729301354,875185285,gps,2,0,37.2390116,126.7730151,30.01,"(0.00019600000000000002, 0.0, 0.0, 0.0, 0.00019600000000000002, 0.0, 0.0, 0.0, 0.000676)",2
2024/10/19/10:29:15.081458,15056,1729301355,185264,gps,2,0,37.2390135,126.773016,30.019000000000002,"(0.00019600000000000002, 0.0, 0.0, 0.0, 0.00019600000000000002, 0.0, 0.0, 0.0, 0.000676)",2
2024/10/19/10:29:15.200349,15057,1729301355,125185243,gps,2,0,37.2390152,126.77301709999999,30.021,"(0.00019600000000000002, 0.0, 0.0, 0.0, 0.00019600000000000002, 0.0, 0.0, 0.0, 0.0007289999999999999)",2
2024/10/19/10:29:15.334744,15058,1729301355,250185222,gps,2,0,37.239017,126.77301809999999,30.021,"(0.00019600000000000002, 0.0, 0.0, 0.0, 0.00019600000000000002, 0.0, 0.0, 0.0, 0.0007289999999999999)",2
2024/10/19/10:29:15.454227,15059,1729301355,375185200,gps,2,0,37.2390186,126.77301929999999,30.014,"(0.00019600000000000002, 0.0, 0.0, 0.0, 0.00019600000000000002, 0.0, 0.0, 0.0, 0.000676)",2
2024/10/19/10:29:15.575153,15060,1729301355,500185179,gps,2,0,37.2390204,126.7730204,30.003,"(0.00019600000000000002, 0.0, 0.0, 0.0, 0.00019600000000000002, 0.0, 0.0, 0.0, 0.000676)",2
2024/10/19/10:29:15.700335,15061,1729301355,625185158,gps,2,0,37.2390221,126.7730213,30.004,"(0.00019600000000000002, 0.0, 0.0, 0.0, 0.00019600000000000002, 0.0, 0.0, 0.0, 0.0006250000000000001)",2
2024/10/19/10:29:15.827143,15062,1729301355,750185137,gps,2,0,37.2390238,126.77302239999999,30.006,"(0.00019600000000000002, 0.0, 0.0, 0.0, 0.00019600000000000002, 0.0, 0.0, 0.0, 0.0006250000000000001)",2
2024/10/19/10:29:15.951976,15063,1729301355,875185116,gps,2,0,37.2390255,126.7730234,30.007,"(0.00019600000000000002, 0.0, 0.0, 0.0, 0.00019600000000000002, 0.0, 0.0, 0.0, 0.0006250000000000001)",2
2024/10/19/10:29:16.090026,15064,1729301356,185094,gps,2,0,37.2390271,126.7730244,30.008,"(0.00019600000000000002, 0.0, 0.0, 0.0, 0.00019600000000000002, 0.0, 0.0, 0.0, 0.0006250000000000001)",2
2024/10/19/10:29:16.218827,15065,1729301356,125185073,gps,2,0,37.2390288,126.7730254,30.006,"(0.00019600000000000002, 0.0, 0.0, 0.0, 0.00019600000000000002, 0.0, 0.0, 0.0, 0.0006250000000000001)",2
2024/10/19/10:29:16.322034,15066,1729301356,250185052,gps,2,0,37.2390304,126.77302639999999,30.004,"(0.00019600000000000002, 0.0, 0.0, 0.0, 0.00019600000000000002, 0.0, 0.0, 0.0, 0.0006250000000000001)",2
2024/10/19/10:29:16.454952,15067,1729301356,375185031,gps,2,0,37.239032,126.7730273,29.999000000000002,"(0.00019600000000000002, 0.0, 0.0, 0.0, 0.00019600000000000002, 0.0, 0.0, 0.0, 0.000576)",2
2024/10/19/10:29:16.577634,15068,1729301356,500185010,gps,2,0,37.2390336,126.7730283,29.995,"(0.00019600000000000002, 0.0, 0.0, 0.0, 0.00019600000000000002, 0.0, 0.0, 0.0, 0.000576)",2
2024/10/19/10:29:16.734445,15069,1729301356,625184988,gps,2,0,37.2390352,126.77302929999999,29.991,"(0.00019600000000000002, 0.0, 0.0, 0.0, 0.00019600000000000002, 0.0, 0.0, 0.0, 0.000576)",2
2024/10/19/10:29:16.828557,15070,1729301356,750184967,gps,2,0,37.2390367,126.77303029999999,29.989,"(0.00019600000000000002, 0.0, 0.0, 0.0, 0.00019600000000000002, 0.0, 0.0, 0.0, 0.000576)",2
2024/10/19/10:29:16.952371,15071,1729301356,875184946,gps,2,0,37.239038199999996,126.7730314,29.987000000000002,"(0.00019600000000000002, 0.0, 0.0, 0.0, 0.00019600000000000002, 0.0, 0.0, 0.0, 0.000576)",2
2024/10/19/10:29:17.085349,15072,1729301357,184924,gps,2,0,37.2390397,126.77303219999999,29.990000000000002,"(0.00019600000000000002, 0.0, 0.0, 0.0, 0.00019600000000000002, 0.0, 0.0, 0.0, 0.000576)",2
2024/10/19/10:29:17.195388,15073,1729301357,125184903,gps,2,0,37.239041199999996,126.7730332,29.989,"(0.00019600000000000002, 0.0, 0.0, 0.0, 0.00019600000000000002, 0.0, 0.0, 0.0, 0.000576)",2
2024/10/19/10:29:17.336933,15074,1729301357,250184882,gps,2,0,37.2390427,126.77303409999999,29.992,"(0.00019600000000000002, 0.0, 0.0, 0.0, 0.00019600000000000002, 0.0, 0.0, 0.0, 0.000576)",2
2024/10/19/10:29:17.459920,15075,1729301357,375184861,gps,2,0,37.2390441,126.7730351,29.994,"(0.00019600000000000002, 0.0, 0.0, 0.0, 0.00019600000000000002, 0.0, 0.0, 0.0, 0.000529)",2
2024/10/19/10:29:17.579053,15076,1729301357,500184839,gps,2,0,37.2390456,126.7730359,29.992,"(0.00019600000000000002, 0.0, 0.0, 0.0, 0.00019600000000000002, 0.0, 0.0, 0.0, 0.000529)",2
2024/10/19/10:29:17.702933,15077,1729301357,625184818,gps,2,0,37.239047,126.7730369,29.990000000000002,"(0.00019600000000000002, 0.0, 0.0, 0.0, 0.00019600000000000002, 0.0, 0.0, 0.0, 0.000529)",2
2024/10/19/10:29:17.827116,15078,1729301357,750184797,gps,2,0,37.239048499999996,126.7730378,29.990000000000002,"(0.00019600000000000002, 0.0, 0.0, 0.0, 0.00019600000000000002, 0.0, 0.0, 0.0, 0.000529)",2
2024/10/19/10:29:17.949773,15079,1729301357,875184775,gps,2,0,37.2390499,126.7730387,29.991,"(0.00019600000000000002, 0.0, 0.0, 0.0, 0.00019600000000000002, 0.0, 0.0, 0.0, 0.000529)",2
2024/10/19/10:29:18.077571,15080,1729301358,184754,gps,2,0,37.2390513,126.7730397,29.990000000000002,"(0.00019600000000000002, 0.0, 0.0, 0.0, 0.00019600000000000002, 0.0, 0.0, 0.0, 0.000529)",2
2024/10/19/10:29:18.201836,15081,1729301358,125184733,gps,2,0,37.239052799999996,126.77304059999999,29.994,"(0.00019600000000000002, 0.0, 0.0, 0.0, 0.00019600000000000002, 0.0, 0.0, 0.0, 0.000529)",2
2024/10/19/10:29:18.330336,15082,1729301358,250184712,gps,2,0,37.2390542,126.77304149999999,29.995,"(0.00019600000000000002, 0.0, 0.0, 0.0, 0.00019600000000000002, 0.0, 0.0, 0.0, 0.000529)",2
2024/10/19/10:29:18.459380,15083,1729301358,375184690,gps,2,0,37.2390557,126.7730424,29.999000000000002,"(0.00019600000000000002, 0.0, 0.0, 0.0, 0.00019600000000000002, 0.0, 0.0, 0.0, 0.000529)",2
2024/10/19/10:29:18.576489,15084,1729301358,500184669,gps,2,0,37.2390572,126.77304339999999,29.993000000000002,"(0.00019600000000000002, 0.0, 0.0, 0.0, 0.00019600000000000002, 0.0, 0.0, 0.0, 0.000529)",2
2024/10/19/10:29:18.733514,15085,1729301358,625184648,gps,2,0,37.2390587,126.77304439999999,29.991,"(0.00019600000000000002, 0.0, 0.0, 0.0, 0.00019600000000000002, 0.0, 0.0, 0.0, 0.000529)",2
2024/10/19/10:29:18.826462,15086,1729301358,750184626,gps,2,0,37.2390602,126.77304529999999,29.990000000000002,"(0.00019600000000000002, 0.0, 0.0, 0.0, 0.00019600000000000002, 0.0, 0.0, 0.0, 0.000529)",2
2024/10/19/10:29:18.948527,15087,1729301358,875184605,gps,2,0,37.2390618,126.77304629999999,29.984,"(0.00019600000000000002, 0.0, 0.0, 0.0, 0.00019600000000000002, 0.0, 0.0, 0.0, 0.000529)",2
2024/10/19/10:29:19.085724,15088,1729301359,184584,gps,2,0,37.2390634,126.77304729999999,29.986,"(0.00019600000000000002, 0.0, 0.0, 0.0, 0.00019600000000000002, 0.0, 0.0, 0.0, 0.000529)",2
2024/10/19/10:29:19.210993,15089,1729301359,125184562,gps,2,0,37.239064899999995,126.7730483,29.985,"(0.00019600000000000002, 0.0, 0.0, 0.0, 0.00019600000000000002, 0.0, 0.0, 0.0, 0.000529)",2
2024/10/19/10:29:19.327447,15090,1729301359,250184541,gps,2,0,37.2390665,126.7730493,29.991,"(0.00019600000000000002, 0.0, 0.0, 0.0, 0.00019600000000000002, 0.0, 0.0, 0.0, 0.000529)",2
2024/10/19/10:29:19.456289,15091,1729301359,375184520,gps,2,0,37.239067999999996,126.77305039999999,29.995,"(0.00019600000000000002, 0.0, 0.0, 0.0, 0.00019600000000000002, 0.0, 0.0, 0.0, 0.000529)",2
2024/10/19/10:29:19.576074,15092,1729301359,500184498,gps,2,0,37.2390696,126.7730514,29.997,"(0.00019600000000000002, 0.0, 0.0, 0.0, 0.00019600000000000002, 0.0, 0.0, 0.0, 0.00048399999999999995)",2
2024/10/19/10:29:19.700826,15093,1729301359,625184477,gps,2,0,37.2390711,126.7730524,29.998,"(0.00019600000000000002, 0.0, 0.0, 0.0, 0.00019600000000000002, 0.0, 0.0, 0.0, 0.00048399999999999995)",2
2024/10/19/10:29:19.827192,15094,1729301359,750184456,gps,2,0,37.2390727,126.7730534,29.999000000000002,"(0.00019600000000000002, 0.0, 0.0, 0.0, 0.00019600000000000002, 0.0, 0.0, 0.0, 0.00048399999999999995)",2
2024/10/19/10:29:19.946140,15095,1729301359,875184435,gps,2,0,37.2390743,126.77305439999999,29.999000000000002,"(0.00019600000000000002, 0.0, 0.0, 0.0, 0.00019600000000000002, 0.0, 0.0, 0.0, 0.00048399999999999995)",2
2024/10/19/10:29:20.085805,15096,1729301360,184413,gps,2,0,37.239075899999996,126.77305539999999,29.999000000000002,"(0.00019600000000000002, 0.0, 0.0, 0.0, 0.00019600000000000002, 0.0, 0.0, 0.0, 0.00048399999999999995)",2
2024/10/19/10:29:20.216173,15097,1729301360,125184392,gps,2,0,37.2390775,126.77305639999999,30.001,"(0.00019600000000000002, 0.0, 0.0, 0.0, 0.00019600000000000002, 0.0, 0.0, 0.0, 0.00048399999999999995)",2
2024/10/19/10:29:20.330931,15098,1729301360,250184371,gps,2,0,37.2390791,126.7730574,30.0,"(0.00019600000000000002, 0.0, 0.0, 0.0, 0.00019600000000000002, 0.0, 0.0, 0.0, 0.00048399999999999995)",2
2024/10/19/10:29:20.459477,15099,1729301360,375184350,gps,2,0,37.239080699999995,126.77305849999999,29.996000000000002,"(0.00019600000000000002, 0.0, 0.0, 0.0, 0.00019600000000000002, 0.0, 0.0, 0.0, 0.00048399999999999995)",2
2024/10/19/10:29:20.579412,15100,1729301360,500184328,gps,2,0,37.2390824,126.77305949999999,29.993000000000002,"(0.00019600000000000002, 0.0, 0.0, 0.0, 0.00019600000000000002, 0.0, 0.0, 0.0, 0.00048399999999999995)",2
2024/10/19/10:29:20.736800,15101,1729301360,625184307,gps,2,0,37.239084,126.7730606,29.992,"(0.00019600000000000002, 0.0, 0.0, 0.0, 0.00019600000000000002, 0.0, 0.0, 0.0, 0.00048399999999999995)",2
2024/10/19/10:29:20.818298,15102,1729301360,750184286,gps,2,0,37.2390857,126.7730617,29.991,"(0.00019600000000000002, 0.0, 0.0, 0.0, 0.00019600000000000002, 0.0, 0.0, 0.0, 0.00048399999999999995)",2
2024/10/19/10:29:20.947039,15103,1729301360,875184265,gps,2,0,37.2390875,126.7730627,29.986,"(0.00019600000000000002, 0.0, 0.0, 0.0, 0.00019600000000000002, 0.0, 0.0, 0.0, 0.0006250000000000001)",2
2024/10/19/10:29:21.066461,15104,1729301361,184243,gps,2,0,37.2390891,126.77306379999999,29.987000000000002,"(0.00019600000000000002, 0.0, 0.0, 0.0, 0.00019600000000000002, 0.0, 0.0, 0.0, 0.0008410000000000001)",2
2024/10/19/10:29:21.188825,15105,1729301361,125184222,gps,2,0,37.2390909,126.7730649,29.997,"(0.00019600000000000002, 0.0, 0.0, 0.0, 0.00019600000000000002, 0.0, 0.0, 0.0, 0.0010890000000000001)",2
2024/10/19/10:29:21.320333,15106,1729301361,250184201,gps,2,0,37.2390926,126.773066,30.004,"(0.00019600000000000002, 0.0, 0.0, 0.0, 0.00019600000000000002, 0.0, 0.0, 0.0, 0.0012959999999999998)",2
2024/10/19/10:29:21.442047,15107,1729301361,375184179,gps,2,0,37.2390943,126.77306709999999,29.998,"(0.00019600000000000002, 0.0, 0.0, 0.0, 0.00019600000000000002, 0.0, 0.0, 0.0, 0.001444)",2
2024/10/19/10:29:21.558050,15108,1729301361,500184158,gps,2,0,37.239095899999995,126.7730682,30.008,"(0.00019600000000000002, 0.0, 0.0, 0.0, 0.00019600000000000002, 0.0, 0.0, 0.0, 0.001521)",2
2024/10/19/10:29:21.679061,15109,1729301361,625184137,gps,2,0,37.2390976,126.77306929999999,30.008,"(0.00019600000000000002, 0.0, 0.0, 0.0, 0.00019600000000000002, 0.0, 0.0, 0.0, 0.0016)",2
2024/10/19/10:29:21.811312,15110,1729301361,750184116,gps,2,0,37.2390992,126.7730703,30.014,"(0.00019600000000000002, 0.0, 0.0, 0.0, 0.00019600000000000002, 0.0, 0.0, 0.0, 0.0016)",2
2024/10/19/10:29:21.937242,15111,1729301361,875184094,gps,2,0,37.239100799999996,126.7730713,30.014,"(0.00019600000000000002, 0.0, 0.0, 0.0, 0.00019600000000000002, 0.0, 0.0, 0.0, 0.0016)",2
2024/10/19/10:29:22.068133,15112,1729301362,184073,gps,2,0,37.2391025,126.7730723,30.022000000000002,"(0.00019600000000000002, 0.0, 0.0, 0.0, 0.00019600000000000002, 0.0, 0.0, 0.0, 0.0016)",2
2024/10/19/10:29:22.195147,15113,1729301362,125184052,gps,2,0,37.239104,126.7730734,30.014,"(0.000225, 0.0, 0.0, 0.0, 0.000225, 0.0, 0.0, 0.0, 0.0016810000000000002)",2
2024/10/19/10:29:22.319520,15114,1729301362,250184030,gps,2,0,37.239105599999995,126.77307429999999,30.019000000000002,"(0.000225, 0.0, 0.0, 0.0, 0.000225, 0.0, 0.0, 0.0, 0.0016810000000000002)",2
2024/10/19/10:29:22.441630,15115,1729301362,375184009,gps,2,0,37.2391072,126.7730754,30.012,"(0.00019600000000000002, 0.0, 0.0, 0.0, 0.00019600000000000002, 0.0, 0.0, 0.0, 0.0016)",2
2024/10/19/10:29:22.564605,15116,1729301362,500183988,gps,2,0,37.2391088,126.77307649999999,30.004,"(0.00019600000000000002, 0.0, 0.0, 0.0, 0.00019600000000000002, 0.0, 0.0, 0.0, 0.0016)",2
2024/10/19/10:29:22.722735,15117,1729301362,625183966,gps,2,0,37.2391104,126.77307739999999,29.999000000000002,"(0.00019600000000000002, 0.0, 0.0, 0.0, 0.00019600000000000002, 0.0, 0.0, 0.0, 0.001521)",2
2024/10/19/10:29:22.819115,15118,1729301362,750183945,gps,2,0,37.2391119,126.7730785,29.997,"(0.00019600000000000002, 0.0, 0.0, 0.0, 0.00019600000000000002, 0.0, 0.0, 0.0, 0.001521)",2
2024/10/19/10:29:22.942345,15119,1729301362,875183924,gps,2,0,37.2391133,126.7730795,29.998,"(0.00019600000000000002, 0.0, 0.0, 0.0, 0.00019600000000000002, 0.0, 0.0, 0.0, 0.001521)",2
2024/10/19/10:29:23.074468,15120,1729301363,183902,gps,2,0,37.239114799999996,126.7730804,29.998,"(0.00019600000000000002, 0.0, 0.0, 0.0, 0.00019600000000000002, 0.0, 0.0, 0.0, 0.001521)",2
2024/10/19/10:29:23.206412,15121,1729301363,125183881,gps,2,0,37.2391163,126.7730813,29.991,"(0.00019600000000000002, 0.0, 0.0, 0.0, 0.00019600000000000002, 0.0, 0.0, 0.0, 0.0016)",2
2024/10/19/10:29:23.320525,15122,1729301363,250183860,gps,2,0,37.239117799999995,126.77308219999999,29.986,"(0.00019600000000000002, 0.0, 0.0, 0.0, 0.00019600000000000002, 0.0, 0.0, 0.0, 0.0016)",2
2024/10/19/10:29:23.443458,15123,1729301363,375183839,gps,2,0,37.2391192,126.77308319999999,29.988,"(0.00019600000000000002, 0.0, 0.0, 0.0, 0.00019600000000000002, 0.0, 0.0, 0.0, 0.0018489999999999997)",2
2024/10/19/10:29:23.571200,15124,1729301363,500183817,gps,2,0,37.2391206,126.77308409999999,29.986,"(0.00019600000000000002, 0.0, 0.0, 0.0, 0.00019600000000000002, 0.0, 0.0, 0.0, 0.002025)",2
2024/10/19/10:29:23.695180,15125,1729301363,625183796,gps,2,0,37.239122,126.773085,29.986,"(0.00019600000000000002, 0.0, 0.0, 0.0, 0.00019600000000000002, 0.0, 0.0, 0.0, 0.002209)",2
2024/10/19/10:29:23.819386,15126,1729301363,750183775,gps,2,0,37.2391234,126.7730859,29.989,"(0.00019600000000000002, 0.0, 0.0, 0.0, 0.00019600000000000002, 0.0, 0.0, 0.0, 0.002209)",2
2024/10/19/10:29:23.943122,15127,1729301363,875183754,gps,2,0,37.2391247,126.7730869,29.994,"(0.00019600000000000002, 0.0, 0.0, 0.0, 0.00019600000000000002, 0.0, 0.0, 0.0, 0.002209)",2
2024/10/19/10:29:24.076003,15128,1729301364,183733,gps,2,0,37.2391261,126.77308769999999,29.991,"(0.00019600000000000002, 0.0, 0.0, 0.0, 0.00019600000000000002, 0.0, 0.0, 0.0, 0.002209)",2
2024/10/19/10:29:24.206012,15129,1729301364,125183711,gps,2,0,37.2391274,126.7730886,29.994,"(0.00019600000000000002, 0.0, 0.0, 0.0, 0.00019600000000000002, 0.0, 0.0, 0.0, 0.002209)",2
2024/10/19/10:29:24.321040,15130,1729301364,250183690,gps,2,0,37.239128699999995,126.7730893,29.998,"(0.000225, 0.0, 0.0, 0.0, 0.000225, 0.0, 0.0, 0.0, 0.002304)",2
2024/10/19/10:29:24.476331,15131,1729301364,375183669,gps,2,0,37.239129999999996,126.7730902,29.987000000000002,"(0.000225, 0.0, 0.0, 0.0, 0.000225, 0.0, 0.0, 0.0, 0.0025000000000000005)",2
2024/10/19/10:29:24.565374,15132,1729301364,500183648,gps,2,0,37.239131199999996,126.773091,29.977,"(0.000225, 0.0, 0.0, 0.0, 0.000225, 0.0, 0.0, 0.0, 0.0026009999999999996)",2
2024/10/19/10:29:24.690507,15133,1729301364,625183626,gps,2,0,37.239132399999995,126.77309179999999,29.977,"(0.000225, 0.0, 0.0, 0.0, 0.000225, 0.0, 0.0, 0.0, 0.002704)",2
2024/10/19/10:29:24.813374,15134,1729301364,750183605,gps,2,0,37.239133599999995,126.7730926,29.963,"(0.000225, 0.0, 0.0, 0.0, 0.000225, 0.0, 0.0, 0.0, 0.002304)",2
2024/10/19/10:29:24.938241,15135,1729301364,875183584,gps,2,0,37.239134799999995,126.7730933,29.968,"(0.000225, 0.0, 0.0, 0.0, 0.000225, 0.0, 0.0, 0.0, 0.002116)",2
2024/10/19/10:29:25.070274,15136,1729301365,183563,gps,2,0,37.2391359,126.7730941,29.975,"(0.000225, 0.0, 0.0, 0.0, 0.000225, 0.0, 0.0, 0.0, 0.002025)",2
2024/10/19/10:29:25.204523,15137,1729301365,125183542,gps,2,0,37.239137,126.77309489999999,29.973,"(0.000225, 0.0, 0.0, 0.0, 0.000225, 0.0, 0.0, 0.0, 0.0019359999999999998)",2
2024/10/19/10:29:25.314556,15138,1729301365,250183520,gps,2,0,37.2391381,126.77309559999999,29.968,"(0.000225, 0.0, 0.0, 0.0, 0.000225, 0.0, 0.0, 0.0, 0.0018489999999999997)",2
2024/10/19/10:29:25.443400,15139,1729301365,375183499,gps,2,0,37.2391392,126.77309629999999,29.978,"(0.00019600000000000002, 0.0, 0.0, 0.0, 0.00019600000000000002, 0.0, 0.0, 0.0, 0.0016810000000000002)",2
2024/10/19/10:29:25.570400,15140,1729301365,500183478,gps,2,0,37.239140299999995,126.77309699999999,29.976,"(0.00019600000000000002, 0.0, 0.0, 0.0, 0.00019600000000000002, 0.0, 0.0, 0.0, 0.0016)",2
2024/10/19/10:29:25.696292,15141,1729301365,625183457,gps,2,0,37.2391413,126.7730977,29.975,"(0.00019600000000000002, 0.0, 0.0, 0.0, 0.00019600000000000002, 0.0, 0.0, 0.0, 0.001521)",2
2024/10/19/10:29:25.822275,15142,1729301365,750183436,gps,2,0,37.2391423,126.7730984,29.981,"(0.00019600000000000002, 0.0, 0.0, 0.0, 0.00019600000000000002, 0.0, 0.0, 0.0, 0.001521)",2
2024/10/19/10:29:25.945274,15143,1729301365,875183414,gps,2,0,37.239143399999996,126.7730991,29.986,"(0.00019600000000000002, 0.0, 0.0, 0.0, 0.00019600000000000002, 0.0, 0.0, 0.0, 0.001521)",2
2024/10/19/10:29:26.077845,15144,1729301366,183393,gps,2,0,37.2391444,126.7730998,29.988,"(0.00019600000000000002, 0.0, 0.0, 0.0, 0.00019600000000000002, 0.0, 0.0, 0.0, 0.001444)",2
2024/10/19/10:29:26.195895,15145,1729301366,125183372,gps,2,0,37.2391455,126.7731005,29.986,"(0.00019600000000000002, 0.0, 0.0, 0.0, 0.00019600000000000002, 0.0, 0.0, 0.0, 0.001444)",2
2024/10/19/10:29:26.333862,15146,1729301366,250183351,gps,2,0,37.2391467,126.7731013,29.979,"(0.00019600000000000002, 0.0, 0.0, 0.0, 0.00019600000000000002, 0.0, 0.0, 0.0, 0.001444)",2
2024/10/19/10:29:26.452959,15147,1729301366,375183330,gps,2,0,37.2391478,126.773102,29.986,"(0.00019600000000000002, 0.0, 0.0, 0.0, 0.00019600000000000002, 0.0, 0.0, 0.0, 0.0016810000000000002)",2
2024/10/19/10:29:26.572896,15148,1729301366,500183309,gps,2,0,37.239149,126.7731027,29.985,"(0.00019600000000000002, 0.0, 0.0, 0.0, 0.00019600000000000002, 0.0, 0.0, 0.0, 0.0018489999999999997)",2
2024/10/19/10:29:26.694734,15149,1729301366,625183287,gps,2,0,37.2391502,126.77310349999999,29.984,"(0.00019600000000000002, 0.0, 0.0, 0.0, 0.00019600000000000002, 0.0, 0.0, 0.0, 0.0019359999999999998)",2
2024/10/19/10:29:26.818812,15150,1729301366,750183266,gps,2,0,37.2391515,126.7731044,29.990000000000002,"(0.00019600000000000002, 0.0, 0.0, 0.0, 0.00019600000000000002, 0.0, 0.0, 0.0, 0.002116)",2
2024/10/19/10:29:26.943870,15151,1729301366,875183245,gps,2,0,37.2391528,126.7731053,29.984,"(0.00019600000000000002, 0.0, 0.0, 0.0, 0.00019600000000000002, 0.0, 0.0, 0.0, 0.002116)",2
2024/10/19/10:29:27.098508,15152,1729301367,183224,gps,2,0,37.2391542,126.77310609999999,29.985,"(0.00019600000000000002, 0.0, 0.0, 0.0, 0.00019600000000000002, 0.0, 0.0, 0.0, 0.002209)",2
2024/10/19/10:29:27.212292,15153,1729301367,125183203,gps,2,0,37.2391557,126.77310709999999,29.986,"(0.00019600000000000002, 0.0, 0.0, 0.0, 0.00019600000000000002, 0.0, 0.0, 0.0, 0.002209)",2
2024/10/19/10:29:27.324378,15154,1729301367,250183181,gps,2,0,37.2391571,126.7731082,29.986,"(0.00019600000000000002, 0.0, 0.0, 0.0, 0.00019600000000000002, 0.0, 0.0, 0.0, 0.002304)",2
2024/10/19/10:29:27.453583,15155,1729301367,375183160,gps,2,0,37.239158599999996,126.7731091,29.995,"(0.00019600000000000002, 0.0, 0.0, 0.0, 0.00019600000000000002, 0.0, 0.0, 0.0, 0.0016)",2
2024/10/19/10:29:27.570558,15156,1729301367,500183139,gps,2,0,37.2391601,126.77311019999999,30.001,"(0.00019600000000000002, 0.0, 0.0, 0.0, 0.00019600000000000002, 0.0, 0.0, 0.0, 0.0012959999999999998)",2
2024/10/19/10:29:27.695865,15157,1729301367,625183118,gps,2,0,37.239161599999996,126.7731111,30.001,"(0.00019600000000000002, 0.0, 0.0, 0.0, 0.00019600000000000002, 0.0, 0.0, 0.0, 0.0011560000000000001)",2
2024/10/19/10:29:27.821583,15158,1729301367,750183097,gps,2,0,37.2391631,126.7731122,30.007,"(0.00019600000000000002, 0.0, 0.0, 0.0, 0.00019600000000000002, 0.0, 0.0, 0.0, 0.0010890000000000001)",2
2024/10/19/10:29:27.944601,15159,1729301367,875183075,gps,2,0,37.2391645,126.7731132,30.006,"(0.00019600000000000002, 0.0, 0.0, 0.0, 0.00019600000000000002, 0.0, 0.0, 0.0, 0.001024)",2
2024/10/19/10:29:28.082469,15160,1729301368,183054,gps,2,0,37.239166,126.7731141,30.007,"(0.00019600000000000002, 0.0, 0.0, 0.0, 0.00019600000000000002, 0.0, 0.0, 0.0, 0.001024)",2
2024/10/19/10:29:28.205156,15161,1729301368,125183033,gps,2,0,37.2391675,126.7731151,30.008,"(0.00019600000000000002, 0.0, 0.0, 0.0, 0.00019600000000000002, 0.0, 0.0, 0.0, 0.001024)",2
2024/10/19/10:29:28.321238,15162,1729301368,250183012,gps,2,0,37.239168899999996,126.7731161,30.012,"(0.00019600000000000002, 0.0, 0.0, 0.0, 0.00019600000000000002, 0.0, 0.0, 0.0, 0.001024)",2
2024/10/19/10:29:28.450180,15163,1729301368,375182991,gps,2,0,37.2391704,126.7731171,30.016000000000002,"(0.00019600000000000002, 0.0, 0.0, 0.0, 0.00019600000000000002, 0.0, 0.0, 0.0, 0.0009)",2
2024/10/19/10:29:28.571829,15164,1729301368,500182969,gps,2,0,37.2391718,126.773118,30.02,"(0.00019600000000000002, 0.0, 0.0, 0.0, 0.00019600000000000002, 0.0, 0.0, 0.0, 0.0009)",2
2024/10/19/10:29:28.695183,15165,1729301368,625182948,gps,2,0,37.239173199999996,126.7731189,30.021,"(0.00019600000000000002, 0.0, 0.0, 0.0, 0.00019600000000000002, 0.0, 0.0, 0.0, 0.0008410000000000001)",2
2024/10/19/10:29:28.821089,15166,1729301368,750182927,gps,2,0,37.2391747,126.7731199,30.024,"(0.00019600000000000002, 0.0, 0.0, 0.0, 0.00019600000000000002, 0.0, 0.0, 0.0, 0.0008410000000000001)",2
2024/10/19/10:29:28.941072,15167,1729301368,875182906,gps,2,0,37.239176199999996,126.7731209,30.026,"(0.00019600000000000002, 0.0, 0.0, 0.0, 0.00019600000000000002, 0.0, 0.0, 0.0, 0.0008410000000000001)",2
2024/10/19/10:29:29.108944,15168,1729301369,182885,gps,2,0,37.2391776,126.77312189999999,30.023,"(0.00019600000000000002, 0.0, 0.0, 0.0, 0.00019600000000000002, 0.0, 0.0, 0.0, 0.0008410000000000001)",2
2024/10/19/10:29:29.328905,15169,1729301369,250182842,gps,2,0,37.2391807,126.77312389999999,30.025000000000002,"(0.00019600000000000002, 0.0, 0.0, 0.0, 0.00019600000000000002, 0.0, 0.0, 0.0, 0.0010890000000000001)",2
2024/10/19/10:29:29.453354,15170,1729301369,375182821,gps,2,0,37.239182299999996,126.7731249,30.02,"(0.00019600000000000002, 0.0, 0.0, 0.0, 0.00019600000000000002, 0.0, 0.0, 0.0, 0.0009)",2
2024/10/19/10:29:29.572899,15171,1729301369,500182800,gps,2,0,37.2391838,126.7731259,30.019000000000002,"(0.00019600000000000002, 0.0, 0.0, 0.0, 0.00019600000000000002, 0.0, 0.0, 0.0, 0.0008410000000000001)",2
2024/10/19/10:29:29.696055,15172,1729301369,625182779,gps,2,0,37.239185299999995,126.7731269,30.019000000000002,"(0.00019600000000000002, 0.0, 0.0, 0.0, 0.00019600000000000002, 0.0, 0.0, 0.0, 0.0007840000000000001)",2
2024/10/19/10:29:29.813838,15173,1729301369,750182757,gps,2,0,37.2391869,126.773128,30.018,"(0.00019600000000000002, 0.0, 0.0, 0.0, 0.00019600000000000002, 0.0, 0.0, 0.0, 0.0007289999999999999)",2
2024/10/19/10:29:29.944534,15174,1729301369,875182736,gps,2,0,37.239188399999996,126.773129,30.016000000000002,"(0.00019600000000000002, 0.0, 0.0, 0.0, 0.00019600000000000002, 0.0, 0.0, 0.0, 0.0007289999999999999)",2
2024/10/19/10:29:30.084345,15175,1729301370,182715,gps,2,0,37.23919,126.77313,30.017,"(0.00019600000000000002, 0.0, 0.0, 0.0, 0.00019600000000000002, 0.0, 0.0, 0.0, 0.0007289999999999999)",2
2024/10/19/10:29:30.204388,15176,1729301370,125182694,gps,2,0,37.2391915,126.7731311,30.022000000000002,"(0.00019600000000000002, 0.0, 0.0, 0.0, 0.00019600000000000002, 0.0, 0.0, 0.0, 0.0007289999999999999)",2
2024/10/19/10:29:30.323009,15177,1729301370,250182673,gps,2,0,37.2391931,126.7731321,30.019000000000002,"(0.00019600000000000002, 0.0, 0.0, 0.0, 0.00019600000000000002, 0.0, 0.0, 0.0, 0.0007289999999999999)",2
2024/10/19/10:29:30.446202,15178,1729301370,375182651,gps,2,0,37.2391947,126.77313299999999,30.01,"(0.00019600000000000002, 0.0, 0.0, 0.0, 0.00019600000000000002, 0.0, 0.0, 0.0, 0.0008410000000000001)",2
2024/10/19/10:29:30.565599,15179,1729301370,500182630,gps,2,0,37.239196199999995,126.773134,30.007,"(0.00019600000000000002, 0.0, 0.0, 0.0, 0.00019600000000000002, 0.0, 0.0, 0.0, 0.0010890000000000001)",2
2024/10/19/10:29:30.684890,15180,1729301370,625182609,gps,2,0,37.2391978,126.773135,29.999000000000002,"(0.00019600000000000002, 0.0, 0.0, 0.0, 0.00019600000000000002, 0.0, 0.0, 0.0, 0.0012959999999999998)",2
2024/10/19/10:29:30.818222,15181,1729301370,750182588,gps,2,0,37.2391994,126.773136,29.987000000000002,"(0.00019600000000000002, 0.0, 0.0, 0.0, 0.00019600000000000002, 0.0, 0.0, 0.0, 0.001521)",2
2024/10/19/10:29:30.943990,15182,1729301370,875182567,gps,2,0,37.239201,126.77313699999999,29.981,"(0.00019600000000000002, 0.0, 0.0, 0.0, 0.00019600000000000002, 0.0, 0.0, 0.0, 0.0016810000000000002)",2
2024/10/19/10:29:31.111110,15183,1729301371,182545,gps,2,0,37.2392025,126.7731381,29.974,"(0.00019600000000000002, 0.0, 0.0, 0.0, 0.00019600000000000002, 0.0, 0.0, 0.0, 0.0018489999999999997)",2
2024/10/19/10:29:31.321086,15184,1729301371,250182503,gps,2,0,37.2392057,126.7731402,29.979,"(0.00019600000000000002, 0.0, 0.0, 0.0, 0.00019600000000000002, 0.0, 0.0, 0.0, 0.0025000000000000005)",2
2024/10/19/10:29:31.450499,15185,1729301371,375182482,gps,2,0,37.239207199999996,126.7731412,29.983,"(0.00019600000000000002, 0.0, 0.0, 0.0, 0.00019600000000000002, 0.0, 0.0, 0.0, 0.0016)",2
2024/10/19/10:29:31.564809,15186,1729301371,500182460,gps,2,0,37.2392088,126.77314229999999,29.989,"(0.00019600000000000002, 0.0, 0.0, 0.0, 0.00019600000000000002, 0.0, 0.0, 0.0, 0.0012959999999999998)",2
2024/10/19/10:29:31.695490,15187,1729301371,625182439,gps,2,0,37.239210299999996,126.7731433,29.994,"(0.00019600000000000002, 0.0, 0.0, 0.0, 0.00019600000000000002, 0.0, 0.0, 0.0, 0.0011560000000000001)",2
2024/10/19/10:29:31.819582,15188,1729301371,750182418,gps,2,0,37.2392118,126.7731443,29.992,"(0.00019600000000000002, 0.0, 0.0, 0.0, 0.00019600000000000002, 0.0, 0.0, 0.0, 0.0010890000000000001)",2
2024/10/19/10:29:31.940732,15189,1729301371,875182397,gps,2,0,37.239213299999996,126.77314519999999,29.991,"(0.00019600000000000002, 0.0, 0.0, 0.0, 0.00019600000000000002, 0.0, 0.0, 0.0, 0.001024)",2
2024/10/19/10:29:32.074193,15190,1729301372,182376,gps,2,0,37.2392148,126.7731462,29.986,"(0.00019600000000000002, 0.0, 0.0, 0.0, 0.00019600000000000002, 0.0, 0.0, 0.0, 0.0010890000000000001)",2
2024/10/19/10:29:32.192861,15191,1729301372,125182354,gps,2,0,37.2392162,126.7731472,29.990000000000002,"(0.00019600000000000002, 0.0, 0.0, 0.0, 0.00019600000000000002, 0.0, 0.0, 0.0, 0.0010890000000000001)",2
2024/10/19/10:29:32.320054,15192,1729301372,250182333,gps,2,0,37.2392177,126.7731481,30.001,"(0.00019600000000000002, 0.0, 0.0, 0.0, 0.00019600000000000002, 0.0, 0.0, 0.0, 0.0011560000000000001)",2
2024/10/19/10:29:32.441554,15193,1729301372,375182312,gps,2,0,37.2392191,126.77314899999999,30.001,"(0.00019600000000000002, 0.0, 0.0, 0.0, 0.00019600000000000002, 0.0, 0.0, 0.0, 0.0010890000000000001)",2
2024/10/19/10:29:32.568402,15194,1729301372,500182291,gps,2,0,37.2392205,126.77315,30.007,"(0.00019600000000000002, 0.0, 0.0, 0.0, 0.00019600000000000002, 0.0, 0.0, 0.0, 0.001024)",2
2024/10/19/10:29:32.694038,15195,1729301372,625182269,gps,2,0,37.2392219,126.77315089999999,30.011,"(0.00019600000000000002, 0.0, 0.0, 0.0, 0.00019600000000000002, 0.0, 0.0, 0.0, 0.001024)",2
2024/10/19/10:29:32.818207,15196,1729301372,750182248,gps,2,0,37.2392233,126.7731518,30.009,"(0.00019600000000000002, 0.0, 0.0, 0.0, 0.00019600000000000002, 0.0, 0.0, 0.0, 0.001024)",2
2024/10/19/10:29:32.942193,15197,1729301372,875182227,gps,2,0,37.2392247,126.7731527,30.004,"(0.00019600000000000002, 0.0, 0.0, 0.0, 0.00019600000000000002, 0.0, 0.0, 0.0, 0.001024)",2
2024/10/19/10:29:33.110405,15198,1729301373,182206,gps,2,0,37.239226099999996,126.7731536,30.004,"(0.00019600000000000002, 0.0, 0.0, 0.0, 0.00019600000000000002, 0.0, 0.0, 0.0, 0.0009609999999999999)",2
2024/10/19/10:29:33.321786,15199,1729301373,250182164,gps,2,0,37.2392289,126.77315549999999,30.003,"(0.00019600000000000002, 0.0, 0.0, 0.0, 0.00019600000000000002, 0.0, 0.0, 0.0, 0.0012959999999999998)",2
2024/10/19/10:29:33.446870,15200,1729301373,375182142,gps,2,0,37.239230299999996,126.77315639999999,29.999000000000002,"(0.00019600000000000002, 0.0, 0.0, 0.0, 0.00019600000000000002, 0.0, 0.0, 0.0, 0.0009609999999999999)",2
2024/10/19/10:29:33.568083,15201,1729301373,500182121,gps,2,0,37.2392318,126.7731573,29.992,"(0.00019600000000000002, 0.0, 0.0, 0.0, 0.00019600000000000002, 0.0, 0.0, 0.0, 0.0007840000000000001)",2
2024/10/19/10:29:33.693508,15202,1729301373,625182100,gps,2,0,37.2392332,126.7731582,29.985,"(0.00019600000000000002, 0.0, 0.0, 0.0, 0.00019600000000000002, 0.0, 0.0, 0.0, 0.0007289999999999999)",2
2024/10/19/10:29:33.819695,15203,1729301373,750182079,gps,2,0,37.239234599999996,126.7731592,29.981,"(0.00019600000000000002, 0.0, 0.0, 0.0, 0.00019600000000000002, 0.0, 0.0, 0.0, 0.000676)",2
2024/10/19/10:29:33.942741,15204,1729301373,875182058,gps,2,0,37.239236,126.7731601,29.984,"(0.00019600000000000002, 0.0, 0.0, 0.0, 0.00019600000000000002, 0.0, 0.0, 0.0, 0.000676)",2
2024/10/19/10:29:34.079490,15205,1729301374,182036,gps,2,0,37.2392375,126.77316099999999,29.981,"(0.00019600000000000002, 0.0, 0.0, 0.0, 0.00019600000000000002, 0.0, 0.0, 0.0, 0.000676)",2
2024/10/19/10:29:34.199499,15206,1729301374,125182015,gps,2,0,37.2392389,126.773162,29.98,"(0.00019600000000000002, 0.0, 0.0, 0.0, 0.00019600000000000002, 0.0, 0.0, 0.0, 0.000676)",2
2024/10/19/10:29:34.312838,15207,1729301374,250181994,gps,2,0,37.2392404,126.77316289999999,29.98,"(0.00019600000000000002, 0.0, 0.0, 0.0, 0.00019600000000000002, 0.0, 0.0, 0.0, 0.000676)",2
2024/10/19/10:29:34.442320,15208,1729301374,375181973,gps,2,0,37.239242,126.7731639,29.982,"(0.00019600000000000002, 0.0, 0.0, 0.0, 0.00019600000000000002, 0.0, 0.0, 0.0, 0.000676)",2
2024/10/19/10:29:34.569571,15209,1729301374,500181952,gps,2,0,37.2392435,126.7731649,29.983,"(0.00019600000000000002, 0.0, 0.0, 0.0, 0.00019600000000000002, 0.0, 0.0, 0.0, 0.0007289999999999999)",2
2024/10/19/10:29:34.693820,15210,1729301374,625181931,gps,2,0,37.2392451,126.77316599999999,29.982,"(0.00019600000000000002, 0.0, 0.0, 0.0, 0.00019600000000000002, 0.0, 0.0, 0.0, 0.0007289999999999999)",2
2024/10/19/10:29:34.819593,15211,1729301374,750181909,gps,2,0,37.239246699999995,126.773167,29.981,"(0.00019600000000000002, 0.0, 0.0, 0.0, 0.00019600000000000002, 0.0, 0.0, 0.0, 0.0007289999999999999)",2
2024/10/19/10:29:34.942361,15212,1729301374,875181888,gps,2,0,37.2392483,126.77316809999999,29.979,"(0.00019600000000000002, 0.0, 0.0, 0.0, 0.00019600000000000002, 0.0, 0.0, 0.0, 0.0007289999999999999)",2
2024/10/19/10:29:35.109514,15213,1729301375,181867,gps,2,0,37.23925,126.77316909999999,29.977,"(0.00019600000000000002, 0.0, 0.0, 0.0, 0.00019600000000000002, 0.0, 0.0, 0.0, 0.0007289999999999999)",2
2024/10/19/10:29:35.321893,15214,1729301375,250181825,gps,2,0,37.2392532,126.7731712,29.973,"(0.00019600000000000002, 0.0, 0.0, 0.0, 0.00019600000000000002, 0.0, 0.0, 0.0, 0.001024)",2
2024/10/19/10:29:35.448557,15215,1729301375,375181804,gps,2,0,37.2392548,126.7731723,29.990000000000002,"(0.00019600000000000002, 0.0, 0.0, 0.0, 0.00019600000000000002, 0.0, 0.0, 0.0, 0.0008410000000000001)",2
2024/10/19/10:29:35.568398,15216,1729301375,500181782,gps,2,0,37.239256399999995,126.7731733,29.993000000000002,"(0.00019600000000000002, 0.0, 0.0, 0.0, 0.00019600000000000002, 0.0, 0.0, 0.0, 0.0007840000000000001)",2
2024/10/19/10:29:35.690255,15217,1729301375,625181761,gps,2,0,37.239258,126.77317439999999,29.990000000000002,"(0.00019600000000000002, 0.0, 0.0, 0.0, 0.00019600000000000002, 0.0, 0.0, 0.0, 0.0007289999999999999)",2
2024/10/19/10:29:35.815282,15218,1729301375,750181740,gps,2,0,37.2392596,126.7731754,29.993000000000002,"(0.00019600000000000002, 0.0, 0.0, 0.0, 0.00019600000000000002, 0.0, 0.0, 0.0, 0.0007289999999999999)",2
2024/10/19/10:29:35.938932,15219,1729301375,875181719,gps,2,0,37.2392612,126.77317649999999,29.991,"(0.00019600000000000002, 0.0, 0.0, 0.0, 0.00019600000000000002, 0.0, 0.0, 0.0, 0.0007289999999999999)",2
2024/10/19/10:29:36.066298,15220,1729301376,181698,gps,2,0,37.2392628,126.77317749999999,29.993000000000002,"(0.00019600000000000002, 0.0, 0.0, 0.0, 0.00019600000000000002, 0.0, 0.0, 0.0, 0.0007289999999999999)",2
2024/10/19/10:29:36.193452,15221,1729301376,125181676,gps,2,0,37.239264399999996,126.7731785,29.991,"(0.00019600000000000002, 0.0, 0.0, 0.0, 0.00019600000000000002, 0.0, 0.0, 0.0, 0.0007289999999999999)",2
2024/10/19/10:29:36.327192,15222,1729301376,250181655,gps,2,0,37.2392659,126.7731795,29.992,"(0.00019600000000000002, 0.0, 0.0, 0.0, 0.00019600000000000002, 0.0, 0.0, 0.0, 0.0007289999999999999)",2
2024/10/19/10:29:36.448222,15223,1729301376,375181634,gps,2,0,37.2392675,126.7731805,29.992,"(0.00019600000000000002, 0.0, 0.0, 0.0, 0.00019600000000000002, 0.0, 0.0, 0.0, 0.000676)",2
2024/10/19/10:29:36.565860,15224,1729301376,500181613,gps,2,0,37.239269,126.77318149999999,29.991,"(0.00019600000000000002, 0.0, 0.0, 0.0, 0.00019600000000000002, 0.0, 0.0, 0.0, 0.000676)",2
2024/10/19/10:29:36.690885,15225,1729301376,625181592,gps,2,0,37.2392706,126.7731824,29.986,"(0.00019600000000000002, 0.0, 0.0, 0.0, 0.00019600000000000002, 0.0, 0.0, 0.0, 0.000676)",2
